{
"type": "FeatureCollection",
"features": [
{ "type": "Feature", "properties": { "station_num": "1", "line_name": "广佛线(沥滘--新城东)", "station_name": "沥滘", "status": "运营中" }, "geometry": { "type": "Point", "coordinates": [ 113.313821089172848, 23.057431567884468 ] } },
{ "type": "Feature", "properties": { "station_num": "2", "line_name": "广佛线(沥滘--新城东)", "station_name": "南洲", "status": "运营中" }, "geometry": { "type": "Point", "coordinates": [ 113.29208292369043, 23.067399328516501 ] } },
{ "type": "Feature", "properties": { "station_num": "3", "line_name": "广佛线(沥滘--新城东)", "station_name": "石溪", "status": "运营中" }, "geometry": { "type": "Point", "coordinates": [ 113.280602764503371, 23.070619227757096 ] } },
{ "type": "Feature", "properties": { "station_num": "4", "line_name": "广佛线(沥滘--新城东)", "station_name": "燕岗", "status": "运营中" }, "geometry": { "type": "Point", "coordinates": [ 113.266655874901659, 23.077835778853661 ] } },
{ "type": "Feature", "properties": { "station_num": "5", "line_name": "广佛线(沥滘--新城东)", "station_name": "沙园", "status": "运营中" }, "geometry": { "type": "Point", "coordinates": [ 113.255261390654923, 23.09130912146054 ] } },
{ "type": "Feature", "properties": { "station_num": "6", "line_name": "广佛线(沥滘--新城东)", "station_name": "沙涌", "status": "运营中" }, "geometry": { "type": "Point", "coordinates": [ 113.241434182406721, 23.085796463764549 ] } },
{ "type": "Feature", "properties": { "station_num": "7", "line_name": "广佛线(沥滘--新城东)", "station_name": "鹤洞", "status": "运营中" }, "geometry": { "type": "Point", "coordinates": [ 113.234831842990587, 23.075197349491283 ] } },
{ "type": "Feature", "properties": { "station_num": "8", "line_name": "广佛线(沥滘--新城东)", "station_name": "西塱", "status": "运营中" }, "geometry": { "type": "Point", "coordinates": [ 113.227196892038094, 23.069489914679785 ] } },
{ "type": "Feature", "properties": { "station_num": "9", "line_name": "广佛线(沥滘--新城东)", "station_name": "菊树", "status": "运营中" }, "geometry": { "type": "Point", "coordinates": [ 113.207520704044185, 23.068550155395918 ] } },
{ "type": "Feature", "properties": { "station_num": "10", "line_name": "广佛线(沥滘--新城东)", "station_name": "龙溪", "status": "运营中" }, "geometry": { "type": "Point", "coordinates": [ 113.187017888760778, 23.068679817028876 ] } },
{ "type": "Feature", "properties": { "station_num": "11", "line_name": "广佛线(沥滘--新城东)", "station_name": "金融高新区", "status": "运营中" }, "geometry": { "type": "Point", "coordinates": [ 113.153113024961584, 23.068402228974929 ] } },
{ "type": "Feature", "properties": { "station_num": "12", "line_name": "广佛线(沥滘--新城东)", "station_name": "千灯湖", "status": "运营中" }, "geometry": { "type": "Point", "coordinates": [ 113.149916147062314, 23.057405150327217 ] } },
{ "type": "Feature", "properties": { "station_num": "13", "line_name": "广佛线(沥滘--新城东)", "station_name": "礌岗", "status": "运营中" }, "geometry": { "type": "Point", "coordinates": [ 113.14998709470413, 23.045199506703227 ] } },
{ "type": "Feature", "properties": { "station_num": "14", "line_name": "广佛线(沥滘--新城东)", "station_name": "南桂路", "status": "运营中" }, "geometry": { "type": "Point", "coordinates": [ 113.148698439161208, 23.036760846024382 ] } },
{ "type": "Feature", "properties": { "station_num": "15", "line_name": "广佛线(沥滘--新城东)", "station_name": "桂城", "status": "运营中" }, "geometry": { "type": "Point", "coordinates": [ 113.135971319353501, 23.03424780640422 ] } },
{ "type": "Feature", "properties": { "station_num": "16", "line_name": "广佛线(沥滘--新城东)", "station_name": "朝安", "status": "运营中" }, "geometry": { "type": "Point", "coordinates": [ 113.128065995354191, 23.030240207922795 ] } },
{ "type": "Feature", "properties": { "station_num": "17", "line_name": "广佛线(沥滘--新城东)", "station_name": "普君北路", "status": "运营中" }, "geometry": { "type": "Point", "coordinates": [ 113.116757341944151, 23.030229171409591 ] } },
{ "type": "Feature", "properties": { "station_num": "18", "line_name": "广佛线(沥滘--新城东)", "station_name": "祖庙", "status": "运营中" }, "geometry": { "type": "Point", "coordinates": [ 113.106610090860158, 23.029616510380308 ] } },
{ "type": "Feature", "properties": { "station_num": "19", "line_name": "广佛线(沥滘--新城东)", "station_name": "同济路", "status": "运营中" }, "geometry": { "type": "Point", "coordinates": [ 113.103013446082485, 23.021767046163923 ] } },
{ "type": "Feature", "properties": { "station_num": "20", "line_name": "广佛线(沥滘--新城东)", "station_name": "季华园", "status": "运营中" }, "geometry": { "type": "Point", "coordinates": [ 113.103055275237395, 23.009707275197194 ] } },
{ "type": "Feature", "properties": { "station_num": "21", "line_name": "广佛线(沥滘--新城东)", "station_name": "魁奇路", "status": "运营中" }, "geometry": { "type": "Point", "coordinates": [ 113.10312720021561, 22.996342082286723 ] } },
{ "type": "Feature", "properties": { "station_num": "22", "line_name": "广佛线(沥滘--新城东)", "station_name": "澜石", "status": "运营中" }, "geometry": { "type": "Point", "coordinates": [ 113.101619535738365, 22.986544684383464 ] } },
{ "type": "Feature", "properties": { "station_num": "23", "line_name": "广佛线(沥滘--新城东)", "station_name": "世纪莲", "status": "运营中" }, "geometry": { "type": "Point", "coordinates": [ 113.10943360932302, 22.967719023921326 ] } },
{ "type": "Feature", "properties": { "station_num": "24", "line_name": "广佛线(沥滘--新城东)", "station_name": "东平", "status": "运营中" }, "geometry": { "type": "Point", "coordinates": [ 113.123718210246281, 22.967851625888688 ] } },
{ "type": "Feature", "properties": { "station_num": "25", "line_name": "广佛线(沥滘--新城东)", "station_name": "新城东", "status": "运营中" }, "geometry": { "type": "Point", "coordinates": [ 113.135200131143918, 22.96141502599945 ] } },
{ "type": "Feature", "properties": { "station_num": "1", "line_name": "南海有轨电车1号线(林岳东--礌岗)", "station_name": "林岳东", "status": "运营中" }, "geometry": { "type": "Point", "coordinates": [ 113.242038132555734, 22.996912650523424 ] } },
{ "type": "Feature", "properties": { "station_num": "2", "line_name": "南海有轨电车1号线(林岳东--礌岗)", "station_name": "林岳西", "status": "运营中" }, "geometry": { "type": "Point", "coordinates": [ 113.231844064008655, 22.996478929625169 ] } },
{ "type": "Feature", "properties": { "station_num": "3", "line_name": "南海有轨电车1号线(林岳东--礌岗)", "station_name": "林岳北", "status": "运营中" }, "geometry": { "type": "Point", "coordinates": [ 113.228327758465213, 23.006134859041826 ] } },
{ "type": "Feature", "properties": { "station_num": "4", "line_name": "南海有轨电车1号线(林岳东--礌岗)", "station_name": "三山新城南", "status": "运营中" }, "geometry": { "type": "Point", "coordinates": [ 113.228949783660909, 23.010675264479108 ] } },
{ "type": "Feature", "properties": { "station_num": "5", "line_name": "南海有轨电车1号线(林岳东--礌岗)", "station_name": "文翰湖公园(季华实验室)", "status": "运营中" }, "geometry": { "type": "Point", "coordinates": [ 113.230535817363673, 23.021710370933945 ] } },
{ "type": "Feature", "properties": { "station_num": "6", "line_name": "南海有轨电车1号线(林岳东--礌岗)", "station_name": "三山新城北", "status": "运营中" }, "geometry": { "type": "Point", "coordinates": [ 113.229421015759399, 23.025757017433371 ] } },
{ "type": "Feature", "properties": { "station_num": "7", "line_name": "南海有轨电车1号线(林岳东--礌岗)", "station_name": "中区", "status": "运营中" }, "geometry": { "type": "Point", "coordinates": [ 113.220606011935516, 23.028294574135359 ] } },
{ "type": "Feature", "properties": { "station_num": "8", "line_name": "南海有轨电车1号线(林岳东--礌岗)", "station_name": "玉器街", "status": "运营中" }, "geometry": { "type": "Point", "coordinates": [ 113.204408644763035, 23.024362003065022 ] } },
{ "type": "Feature", "properties": { "station_num": "9", "line_name": "南海有轨电车1号线(林岳东--礌岗)", "station_name": "平南", "status": "运营中" }, "geometry": { "type": "Point", "coordinates": [ 113.196412230048225, 23.023239793086614 ] } },
{ "type": "Feature", "properties": { "station_num": "10", "line_name": "南海有轨电车1号线(林岳东--礌岗)", "station_name": "平西", "status": "运营中" }, "geometry": { "type": "Point", "coordinates": [ 113.190455224366147, 23.030706942980309 ] } },
{ "type": "Feature", "properties": { "station_num": "11", "line_name": "南海有轨电车1号线(林岳东--礌岗)", "station_name": "康怡公园", "status": "运营中" }, "geometry": { "type": "Point", "coordinates": [ 113.18459389845917, 23.03581965062773 ] } },
{ "type": "Feature", "properties": { "station_num": "12", "line_name": "南海有轨电车1号线(林岳东--礌岗)", "station_name": "夏东", "status": "运营中" }, "geometry": { "type": "Point", "coordinates": [ 113.176129586848063, 23.037310647627912 ] } },
{ "type": "Feature", "properties": { "station_num": "13", "line_name": "南海有轨电车1号线(林岳东--礌岗)", "station_name": "夏西", "status": "运营中" }, "geometry": { "type": "Point", "coordinates": [ 113.166642883229983, 23.038458325932318 ] } },
{ "type": "Feature", "properties": { "station_num": "14", "line_name": "南海有轨电车1号线(林岳东--礌岗)", "station_name": "华翠路", "status": "运营中" }, "geometry": { "type": "Point", "coordinates": [ 113.158774211930833, 23.039571022365173 ] } },
{ "type": "Feature", "properties": { "station_num": "15", "line_name": "南海有轨电车1号线(林岳东--礌岗)", "station_name": "礌岗", "status": "运营中" }, "geometry": { "type": "Point", "coordinates": [ 113.151231316069058, 23.044469051350021 ] } },
{ "type": "Feature", "properties": { "station_num": "1", "line_name": "佛山地铁11号线(鹤洞东--容奇渡口)", "station_name": "鹤洞东", "status": "建设中" }, "geometry": { "type": "Point", "coordinates": [ 113.245205689410454, 23.075557950974286 ] } },
{ "type": "Feature", "properties": { "station_num": "2", "line_name": "佛山地铁11号线(鹤洞东--容奇渡口)", "station_name": "广钢新城", "status": "建设中" }, "geometry": { "type": "Point", "coordinates": [ 113.240274846609381, 23.060041224866414 ] } },
{ "type": "Feature", "properties": { "station_num": "3", "line_name": "佛山地铁11号线(鹤洞东--容奇渡口)", "station_name": "三山新城", "status": "建设中" }, "geometry": { "type": "Point", "coordinates": [ 113.2404262751419, 23.038833345946077 ] } },
{ "type": "Feature", "properties": { "station_num": "4", "line_name": "佛山地铁11号线(鹤洞东--容奇渡口)", "station_name": "创智园", "status": "建设中" }, "geometry": { "type": "Point", "coordinates": [ 113.240459972874177, 23.028423838545685 ] } },
{ "type": "Feature", "properties": { "station_num": "5", "line_name": "佛山地铁11号线(鹤洞东--容奇渡口)", "station_name": "港口路", "status": "建设中" }, "geometry": { "type": "Point", "coordinates": [ 113.240825270452575, 23.009317147592856 ] } },
{ "type": "Feature", "properties": { "station_num": "6", "line_name": "佛山地铁11号线(鹤洞东--容奇渡口)", "station_name": "林岳东", "status": "建设中" }, "geometry": { "type": "Point", "coordinates": [ 113.243363089858519, 22.997110654978773 ] } },
{ "type": "Feature", "properties": { "station_num": "7", "line_name": "佛山地铁11号线(鹤洞东--容奇渡口)", "station_name": "陈村北", "status": "建设中" }, "geometry": { "type": "Point", "coordinates": [ 113.239930238737614, 22.978868155013476 ] } },
{ "type": "Feature", "properties": { "station_num": "8", "line_name": "佛山地铁11号线(鹤洞东--容奇渡口)", "station_name": "陈村东", "status": "建设中" }, "geometry": { "type": "Point", "coordinates": [ 113.249542463375633, 22.960595908589436 ] } },
{ "type": "Feature", "properties": { "station_num": "9", "line_name": "佛山地铁11号线(鹤洞东--容奇渡口)", "station_name": "碧江", "status": "建设中" }, "geometry": { "type": "Point", "coordinates": [ 113.259029010551941, 22.928890843108142 ] } },
{ "type": "Feature", "properties": { "station_num": "10", "line_name": "佛山地铁11号线(鹤洞东--容奇渡口)", "station_name": "碧江南", "status": "建设中" }, "geometry": { "type": "Point", "coordinates": [ 113.268355200909525, 22.913523602766677 ] } },
{ "type": "Feature", "properties": { "station_num": "11", "line_name": "佛山地铁11号线(鹤洞东--容奇渡口)", "station_name": "顺德站", "status": "建设中" }, "geometry": { "type": "Point", "coordinates": [ 113.26748735545425, 22.87914035231233 ] } },
{ "type": "Feature", "properties": { "station_num": "12", "line_name": "佛山地铁11号线(鹤洞东--容奇渡口)", "station_name": "永丰市场", "status": "建设中" }, "geometry": { "type": "Point", "coordinates": [ 113.264708384438592, 22.857377133851319 ] } },
{ "type": "Feature", "properties": { "station_num": "13", "line_name": "佛山地铁11号线(鹤洞东--容奇渡口)", "station_name": "云路公园", "status": "建设中" }, "geometry": { "type": "Point", "coordinates": [ 113.259971645938151, 22.849555297923498 ] } },
{ "type": "Feature", "properties": { "station_num": "14", "line_name": "佛山地铁11号线(鹤洞东--容奇渡口)", "station_name": "东乐路", "status": "建设中" }, "geometry": { "type": "Point", "coordinates": [ 113.259214955831226, 22.837654236075242 ] } },
{ "type": "Feature", "properties": { "station_num": "15", "line_name": "佛山地铁11号线(鹤洞东--容奇渡口)", "station_name": "南国路", "status": "建设中" }, "geometry": { "type": "Point", "coordinates": [ 113.25935034918173, 22.830354881149724 ] } },
{ "type": "Feature", "properties": { "station_num": "16", "line_name": "佛山地铁11号线(鹤洞东--容奇渡口)", "station_name": "宝林寺", "status": "建设中" }, "geometry": { "type": "Point", "coordinates": [ 113.263291205760993, 22.818033911448452 ] } },
{ "type": "Feature", "properties": { "station_num": "17", "line_name": "佛山地铁11号线(鹤洞东--容奇渡口)", "station_name": "德胜西路", "status": "建设中" }, "geometry": { "type": "Point", "coordinates": [ 113.26178601008229, 22.793852447584744 ] } },
{ "type": "Feature", "properties": { "station_num": "18", "line_name": "佛山地铁11号线(鹤洞东--容奇渡口)", "station_name": "容奇渡口", "status": "建设中" }, "geometry": { "type": "Point", "coordinates": [ 113.263106136257264, 22.776149508840309 ] } },
{ "type": "Feature", "properties": { "station_num": "1", "line_name": "佛山地铁2号线(广州南站--南庄)", "station_name": "广州南站", "status": "运营中" }, "geometry": { "type": "Point", "coordinates": [ 113.260574796461555, 22.990919466449295 ] } },
{ "type": "Feature", "properties": { "station_num": "2", "line_name": "佛山地铁2号线(广州南站--南庄)", "station_name": "林岳东(2号线)", "status": "运营中" }, "geometry": { "type": "Point", "coordinates": [ 113.244378050855133, 22.996646879169866 ] } },
{ "type": "Feature", "properties": { "station_num": "3", "line_name": "佛山地铁2号线(广州南站--南庄)", "station_name": "林岳西", "status": "运营中" }, "geometry": { "type": "Point", "coordinates": [ 113.231844064008655, 22.996478929625169 ] } },
{ "type": "Feature", "properties": { "station_num": "4", "line_name": "佛山地铁2号线(广州南站--南庄)", "station_name": "石洲", "status": "运营中" }, "geometry": { "type": "Point", "coordinates": [ 113.210797656431325, 22.993311568363158 ] } },
{ "type": "Feature", "properties": { "station_num": "5", "line_name": "佛山地铁2号线(广州南站--南庄)", "station_name": "仙涌", "status": "运营中" }, "geometry": { "type": "Point", "coordinates": [ 113.192896217666359, 22.985702408447796 ] } },
{ "type": "Feature", "properties": { "station_num": "6", "line_name": "佛山地铁2号线(广州南站--南庄)", "station_name": "花卉世界", "status": "运营中" }, "geometry": { "type": "Point", "coordinates": [ 113.155926301402602, 22.976021149086804 ] } },
{ "type": "Feature", "properties": { "station_num": "7", "line_name": "佛山地铁2号线(广州南站--南庄)", "station_name": "登洲", "status": "运营中" }, "geometry": { "type": "Point", "coordinates": [ 113.143332179440364, 22.981900257720117 ] } },
{ "type": "Feature", "properties": { "station_num": "8", "line_name": "佛山地铁2号线(广州南站--南庄)", "station_name": "湾华", "status": "运营中" }, "geometry": { "type": "Point", "coordinates": [ 113.126180170029343, 22.994447216097228 ] } },
{ "type": "Feature", "properties": { "station_num": "9", "line_name": "佛山地铁2号线(广州南站--南庄)", "station_name": "石梁", "status": "运营中" }, "geometry": { "type": "Point", "coordinates": [ 113.11326407177522, 22.995254117240052 ] } },
{ "type": "Feature", "properties": { "station_num": "10", "line_name": "佛山地铁2号线(广州南站--南庄)", "station_name": "魁奇路", "status": "运营中" }, "geometry": { "type": "Point", "coordinates": [ 113.10312720021561, 22.996342082286723 ] } },
{ "type": "Feature", "properties": { "station_num": "11", "line_name": "佛山地铁2号线(广州南站--南庄)", "station_name": "沙岗", "status": "运营中" }, "geometry": { "type": "Point", "coordinates": [ 113.088760193178487, 22.999070867846211 ] } },
{ "type": "Feature", "properties": { "station_num": "12", "line_name": "佛山地铁2号线(广州南站--南庄)", "station_name": "石湾", "status": "运营中" }, "geometry": { "type": "Point", "coordinates": [ 113.077806213225927, 23.007851653153967 ] } },
{ "type": "Feature", "properties": { "station_num": "13", "line_name": "佛山地铁2号线(广州南站--南庄)", "station_name": "张槎", "status": "运营中" }, "geometry": { "type": "Point", "coordinates": [ 113.062288729089076, 23.013603900662329 ] } },
{ "type": "Feature", "properties": { "station_num": "14", "line_name": "佛山地铁2号线(广州南站--南庄)", "station_name": "智慧新城", "status": "运营中" }, "geometry": { "type": "Point", "coordinates": [ 113.049983378913339, 23.013749703141613 ] } },
{ "type": "Feature", "properties": { "station_num": "15", "line_name": "佛山地铁2号线(广州南站--南庄)", "station_name": "绿岛湖", "status": "运营中" }, "geometry": { "type": "Point", "coordinates": [ 113.028861707816404, 23.004619897465478 ] } },
{ "type": "Feature", "properties": { "station_num": "16", "line_name": "佛山地铁2号线(广州南站--南庄)", "station_name": "湖涌", "status": "运营中" }, "geometry": { "type": "Point", "coordinates": [ 113.006058272385374, 23.005866509597176 ] } },
{ "type": "Feature", "properties": { "station_num": "17", "line_name": "佛山地铁2号线(广州南站--南庄)", "station_name": "南庄", "status": "运营中" }, "geometry": { "type": "Point", "coordinates": [ 113.001266560635401, 22.985676658766085 ] } },
{ "type": "Feature", "properties": { "station_num": "1", "line_name": "地铁3号线(佛山大学--联和)", "station_name": "佛山大学", "status": "运营中" }, "geometry": { "type": "Point", "coordinates": [ 113.049729841728563, 23.14824083486506 ] } },
{ "type": "Feature", "properties": { "station_num": "2", "line_name": "地铁3号线(佛山大学--联和)", "station_name": "南海大学城", "status": "运营中" }, "geometry": { "type": "Point", "coordinates": [ 113.026820682728243, 23.14285103062533 ] } },
{ "type": "Feature", "properties": { "station_num": "3", "line_name": "地铁3号线(佛山大学--联和)", "station_name": "博爱中路", "status": "运营中" }, "geometry": { "type": "Point", "coordinates": [ 113.020267204398365, 23.119501130280163 ] } },
{ "type": "Feature", "properties": { "station_num": "4", "line_name": "地铁3号线(佛山大学--联和)", "station_name": "科盛路", "status": "运营中" }, "geometry": { "type": "Point", "coordinates": [ 113.018597345724771, 23.110018679406807 ] } },
{ "type": "Feature", "properties": { "station_num": "5", "line_name": "地铁3号线(佛山大学--联和)", "station_name": "兴业东路", "status": "运营中" }, "geometry": { "type": "Point", "coordinates": [ 113.022509736511424, 23.09243615211383 ] } },
{ "type": "Feature", "properties": { "station_num": "6", "line_name": "地铁3号线(佛山大学--联和)", "station_name": "佛山西站", "status": "运营中" }, "geometry": { "type": "Point", "coordinates": [ 113.028428829060786, 23.081917855623203 ] } },
{ "type": "Feature", "properties": { "station_num": "7", "line_name": "地铁3号线(佛山大学--联和)", "station_name": "罗村", "status": "运营中" }, "geometry": { "type": "Point", "coordinates": [ 113.046568623100939, 23.069556315730505 ] } },
{ "type": "Feature", "properties": { "station_num": "8", "line_name": "地铁3号线(佛山大学--联和)", "station_name": "孝德东", "status": "运营中" }, "geometry": { "type": "Point", "coordinates": [ 113.063816344366984, 23.069745763082778 ] } },
{ "type": "Feature", "properties": { "station_num": "9", "line_name": "地铁3号线(佛山大学--联和)", "station_name": "联和", "status": "运营中" }, "geometry": { "type": "Point", "coordinates": [ 113.079446956111923, 23.062871947170322 ] } },
{ "type": "Feature", "properties": { "station_num": "1", "line_name": "地铁3号线(中山公园--顺德学院站)", "station_name": "中山公园", "status": "运营中" }, "geometry": { "type": "Point", "coordinates": [ 113.110671668488266, 23.050662165880716 ] } },
{ "type": "Feature", "properties": { "station_num": "2", "line_name": "地铁3号线(中山公园--顺德学院站)", "station_name": "叠滘", "status": "运营中" }, "geometry": { "type": "Point", "coordinates": [ 113.121889674507372, 23.050819728815984 ] } },
{ "type": "Feature", "properties": { "station_num": "3", "line_name": "地铁3号线(中山公园--顺德学院站)", "station_name": "西约", "status": "运营中" }, "geometry": { "type": "Point", "coordinates": [ 113.134803047827901, 23.043038250595988 ] } },
{ "type": "Feature", "properties": { "station_num": "4", "line_name": "地铁3号线(中山公园--顺德学院站)", "station_name": "桂城", "status": "运营中" }, "geometry": { "type": "Point", "coordinates": [ 113.135902165353059, 23.035042358277881 ] } },
{ "type": "Feature", "properties": { "station_num": "5", "line_name": "地铁3号线(中山公园--顺德学院站)", "station_name": "镇安", "status": "运营中" }, "geometry": { "type": "Point", "coordinates": [ 113.138932749851207, 23.019082983038636 ] } },
{ "type": "Feature", "properties": { "station_num": "6", "line_name": "地铁3号线(中山公园--顺德学院站)", "station_name": "季华六路", "status": "运营中" }, "geometry": { "type": "Point", "coordinates": [ 113.131301168160959, 23.014648377622308 ] } },
{ "type": "Feature", "properties": { "station_num": "7", "line_name": "地铁3号线(中山公园--顺德学院站)", "station_name": "亚艺公园", "status": "运营中" }, "geometry": { "type": "Point", "coordinates": [ 113.123882911895961, 23.004447053197673 ] } },
{ "type": "Feature", "properties": { "station_num": "8", "line_name": "地铁3号线(中山公园--顺德学院站)", "station_name": "湾华", "status": "运营中" }, "geometry": { "type": "Point", "coordinates": [ 113.126180170029343, 22.994447216097228 ] } },
{ "type": "Feature", "properties": { "station_num": "9", "line_name": "地铁3号线(中山公园--顺德学院站)", "station_name": "东平", "status": "运营中" }, "geometry": { "type": "Point", "coordinates": [ 113.123884431259299, 22.967242086726117 ] } },
{ "type": "Feature", "properties": { "station_num": "10", "line_name": "地铁3号线(中山公园--顺德学院站)", "station_name": "大墩", "status": "运营中" }, "geometry": { "type": "Point", "coordinates": [ 113.123957246640558, 22.95635083346869 ] } },
{ "type": "Feature", "properties": { "station_num": "11", "line_name": "地铁3号线(中山公园--顺德学院站)", "station_name": "岳步", "status": "运营中" }, "geometry": { "type": "Point", "coordinates": [ 113.13923216522403, 22.945626040012211 ] } },
{ "type": "Feature", "properties": { "station_num": "12", "line_name": "地铁3号线(中山公园--顺德学院站)", "station_name": "潭洲会展", "status": "运营中" }, "geometry": { "type": "Point", "coordinates": [ 113.158970514169027, 22.951257409020592 ] } },
{ "type": "Feature", "properties": { "station_num": "13", "line_name": "地铁3号线(中山公园--顺德学院站)", "station_name": "北滘西站", "status": "运营中" }, "geometry": { "type": "Point", "coordinates": [ 113.172750884919836, 22.954770892830798 ] } },
{ "type": "Feature", "properties": { "station_num": "14", "line_name": "地铁3号线(中山公园--顺德学院站)", "station_name": "高村", "status": "运营中" }, "geometry": { "type": "Point", "coordinates": [ 113.188910213225967, 22.947518132313206 ] } },
{ "type": "Feature", "properties": { "station_num": "15", "line_name": "地铁3号线(中山公园--顺德学院站)", "station_name": "北滘公园", "status": "运营中" }, "geometry": { "type": "Point", "coordinates": [ 113.206757811673313, 22.932789420456608 ] } },
{ "type": "Feature", "properties": { "station_num": "16", "line_name": "地铁3号线(中山公园--顺德学院站)", "station_name": "广教", "status": "运营中" }, "geometry": { "type": "Point", "coordinates": [ 113.207209762282417, 22.912049661551027 ] } },
{ "type": "Feature", "properties": { "station_num": "17", "line_name": "地铁3号线(中山公园--顺德学院站)", "station_name": "伦教", "status": "运营中" }, "geometry": { "type": "Point", "coordinates": [ 113.208857714329582, 22.883102545410956 ] } },
{ "type": "Feature", "properties": { "station_num": "18", "line_name": "地铁3号线(中山公园--顺德学院站)", "station_name": "荔村", "status": "运营中" }, "geometry": { "type": "Point", "coordinates": [ 113.226111203851929, 22.87491557713005 ] } },
{ "type": "Feature", "properties": { "station_num": "19", "line_name": "地铁3号线(中山公园--顺德学院站)", "station_name": "顺德人民医院", "status": "运营中" }, "geometry": { "type": "Point", "coordinates": [ 113.237084039054949, 22.870452652823253 ] } },
{ "type": "Feature", "properties": { "station_num": "20", "line_name": "地铁3号线(中山公园--顺德学院站)", "station_name": "环市北", "status": "运营中" }, "geometry": { "type": "Point", "coordinates": [ 113.238651310915856, 22.855301961786108 ] } },
{ "type": "Feature", "properties": { "station_num": "21", "line_name": "地铁3号线(中山公园--顺德学院站)", "station_name": "大良钟楼", "status": "运营中" }, "geometry": { "type": "Point", "coordinates": [ 113.247750798351632, 22.84223240434212 ] } },
{ "type": "Feature", "properties": { "station_num": "22", "line_name": "地铁3号线(中山公园--顺德学院站)", "station_name": "东乐路", "status": "运营中" }, "geometry": { "type": "Point", "coordinates": [ 113.259214955831226, 22.837654236075242 ] } },
{ "type": "Feature", "properties": { "station_num": "23", "line_name": "地铁3号线(中山公园--顺德学院站)", "station_name": "驹荣北路", "status": "运营中" }, "geometry": { "type": "Point", "coordinates": [ 113.272143176765482, 22.837694116193013 ] } },
{ "type": "Feature", "properties": { "station_num": "24", "line_name": "地铁3号线(中山公园--顺德学院站)", "station_name": "顺德一中", "status": "运营中" }, "geometry": { "type": "Point", "coordinates": [ 113.288269837951376, 22.835710767996925 ] } },
{ "type": "Feature", "properties": { "station_num": "25", "line_name": "地铁3号线(中山公园--顺德学院站)", "station_name": "顺德欢乐海岸", "status": "运营中" }, "geometry": { "type": "Point", "coordinates": [ 113.30167402723157, 22.82152835572186 ] } },
{ "type": "Feature", "properties": { "station_num": "26", "line_name": "地铁3号线(中山公园--顺德学院站)", "station_name": "顺德学院站", "status": "运营中" }, "geometry": { "type": "Point", "coordinates": [ 113.312883892054217, 22.821646946038314 ] } },
{ "type": "Feature", "properties": { "station_num": "1", "line_name": "地铁3号线后通段(联和--中山公园)", "station_name": "联和", "status": "建设中" }, "geometry": { "type": "Point", "coordinates": [ 113.079721701326591, 23.063069702123453 ] } },
{ "type": "Feature", "properties": { "station_num": "2", "line_name": "地铁3号线后通段(联和--中山公园)", "station_name": "佛山站", "status": "建设中" }, "geometry": { "type": "Point", "coordinates": [ 113.092135437079008, 23.05201071549358 ] } },
{ "type": "Feature", "properties": { "station_num": "3", "line_name": "地铁3号线后通段(联和--中山公园)", "station_name": "敦厚", "status": "建设中" }, "geometry": { "type": "Point", "coordinates": [ 113.098657804581038, 23.051144868433092 ] } },
{ "type": "Feature", "properties": { "station_num": "4", "line_name": "地铁3号线后通段(联和--中山公园)", "station_name": "中山公园", "status": "建设中" }, "geometry": { "type": "Point", "coordinates": [ 113.110678693212904, 23.050358301364771 ] } },
{ "type": "Feature", "properties": { "station_num": "1", "line_name": "地铁3号线南延段(顺德学院站--顺德港)", "station_name": "顺德学院站", "status": "建设中" }, "geometry": { "type": "Point", "coordinates": [ 113.312883892054217, 22.821646946038314 ] } },
{ "type": "Feature", "properties": { "station_num": "2", "line_name": "地铁3号线南延段(顺德学院站--顺德港)", "station_name": "顺德港", "status": "建设中" }, "geometry": { "type": "Point", "coordinates": [ 113.335257994887655, 22.811471181395767 ] } },
{ "type": "Feature", "properties": { "station_num": "1", "line_name": "地铁4号线一期(港口路--北江大道)", "station_name": "港口路", "status": "建设中" }, "geometry": { "type": "Point", "coordinates": [ 113.24198629531449, 23.009454224253222 ] } },
{ "type": "Feature", "properties": { "station_num": "2", "line_name": "地铁4号线一期(港口路--北江大道)", "station_name": "三山新城南", "status": "建设中" }, "geometry": { "type": "Point", "coordinates": [ 113.228959890927698, 23.009145931496036 ] } },
{ "type": "Feature", "properties": { "station_num": "3", "line_name": "地铁4号线一期(港口路--北江大道)", "station_name": "平顺东路", "status": "建设中" }, "geometry": { "type": "Point", "coordinates": [ 113.218185182939848, 23.009383533321138 ] } },
{ "type": "Feature", "properties": { "station_num": "4", "line_name": "地铁4号线一期(港口路--北江大道)", "station_name": "平南工业区", "status": "建设中" }, "geometry": { "type": "Point", "coordinates": [ 113.195647895271804, 23.010633044599963 ] } },
{ "type": "Feature", "properties": { "station_num": "5", "line_name": "地铁4号线一期(港口路--北江大道)", "station_name": "瓜步", "status": "建设中" }, "geometry": { "type": "Point", "coordinates": [ 113.18109144528789, 23.009754639597915 ] } },
{ "type": "Feature", "properties": { "station_num": "6", "line_name": "地铁4号线一期(港口路--北江大道)", "station_name": "平胜", "status": "建设中" }, "geometry": { "type": "Point", "coordinates": [ 113.169924014617195, 23.00860241185898 ] } },
{ "type": "Feature", "properties": { "station_num": "7", "line_name": "地铁4号线一期(港口路--北江大道)", "station_name": "季华东路", "status": "建设中" }, "geometry": { "type": "Point", "coordinates": [ 113.160580392921347, 23.012005298799824 ] } },
{ "type": "Feature", "properties": { "station_num": "8", "line_name": "地铁4号线一期(港口路--北江大道)", "station_name": "石肯", "status": "建设中" }, "geometry": { "type": "Point", "coordinates": [ 113.149493269336688, 23.015117593831576 ] } },
{ "type": "Feature", "properties": { "station_num": "9", "line_name": "地铁4号线一期(港口路--北江大道)", "station_name": "季华六路", "status": "建设中" }, "geometry": { "type": "Point", "coordinates": [ 113.131289156760204, 23.014582389131998 ] } },
{ "type": "Feature", "properties": { "station_num": "10", "line_name": "地铁4号线一期(港口路--北江大道)", "station_name": "文华公园", "status": "建设中" }, "geometry": { "type": "Point", "coordinates": [ 113.119024371902341, 23.014573211861169 ] } },
{ "type": "Feature", "properties": { "station_num": "11", "line_name": "地铁4号线一期(港口路--北江大道)", "station_name": "季华园", "status": "建设中" }, "geometry": { "type": "Point", "coordinates": [ 113.103635113287154, 23.014332540445626 ] } },
{ "type": "Feature", "properties": { "station_num": "12", "line_name": "地铁4号线一期(港口路--北江大道)", "station_name": "佛山大道", "status": "建设中" }, "geometry": { "type": "Point", "coordinates": [ 113.093099766936433, 23.014345938769601 ] } },
{ "type": "Feature", "properties": { "station_num": "13", "line_name": "地铁4号线一期(港口路--北江大道)", "station_name": "江湾路", "status": "建设中" }, "geometry": { "type": "Point", "coordinates": [ 113.082087109230699, 23.014060534727303 ] } },
{ "type": "Feature", "properties": { "station_num": "14", "line_name": "地铁4号线一期(港口路--北江大道)", "station_name": "张槎", "status": "建设中" }, "geometry": { "type": "Point", "coordinates": [ 113.062890696554888, 23.01367006327477 ] } },
{ "type": "Feature", "properties": { "station_num": "15", "line_name": "地铁4号线一期(港口路--北江大道)", "station_name": "智慧新城", "status": "建设中" }, "geometry": { "type": "Point", "coordinates": [ 113.050504202532295, 23.013698759916657 ] } },
{ "type": "Feature", "properties": { "station_num": "16", "line_name": "地铁4号线一期(港口路--北江大道)", "station_name": "绿岛湖中", "status": "建设中" }, "geometry": { "type": "Point", "coordinates": [ 113.025226339385512, 23.014143290391683 ] } },
{ "type": "Feature", "properties": { "station_num": "17", "line_name": "地铁4号线一期(港口路--北江大道)", "station_name": "绿岛湖北", "status": "建设中" }, "geometry": { "type": "Point", "coordinates": [ 113.012315206293778, 23.025645464591541 ] } },
{ "type": "Feature", "properties": { "station_num": "18", "line_name": "地铁4号线一期(港口路--北江大道)", "station_name": "罗务路", "status": "建设中" }, "geometry": { "type": "Point", "coordinates": [ 113.015332662602091, 23.044601569105811 ] } },
{ "type": "Feature", "properties": { "station_num": "19", "line_name": "地铁4号线一期(港口路--北江大道)", "station_name": "下柏", "status": "建设中" }, "geometry": { "type": "Point", "coordinates": [ 113.021211861804687, 23.063844790530773 ] } },
{ "type": "Feature", "properties": { "station_num": "20", "line_name": "地铁4号线一期(港口路--北江大道)", "station_name": "佛山西站", "status": "建设中" }, "geometry": { "type": "Point", "coordinates": [ 113.02858235473677, 23.081984431781475 ] } },
{ "type": "Feature", "properties": { "station_num": "21", "line_name": "地铁4号线一期(港口路--北江大道)", "station_name": "小坑尾", "status": "建设中" }, "geometry": { "type": "Point", "coordinates": [ 113.020067058317522, 23.10169901480667 ] } },
{ "type": "Feature", "properties": { "station_num": "22", "line_name": "地铁4号线一期(港口路--北江大道)", "station_name": "科普中路", "status": "建设中" }, "geometry": { "type": "Point", "coordinates": [ 113.011425989346122, 23.104433579309497 ] } },
{ "type": "Feature", "properties": { "station_num": "23", "line_name": "地铁4号线一期(港口路--北江大道)", "station_name": "科技西路", "status": "建设中" }, "geometry": { "type": "Point", "coordinates": [ 112.999382054505773, 23.109070703302482 ] } },
{ "type": "Feature", "properties": { "station_num": "24", "line_name": "地铁4号线一期(港口路--北江大道)", "station_name": "博爱路", "status": "建设中" }, "geometry": { "type": "Point", "coordinates": [ 112.993117491033047, 23.123625809277989 ] } },
{ "type": "Feature", "properties": { "station_num": "25", "line_name": "地铁4号线一期(港口路--北江大道)", "station_name": "狮山北", "status": "建设中" }, "geometry": { "type": "Point", "coordinates": [ 112.986479716227137, 23.130600124291917 ] } },
{ "type": "Feature", "properties": { "station_num": "26", "line_name": "地铁4号线一期(港口路--北江大道)", "station_name": "大江社村", "status": "建设中" }, "geometry": { "type": "Point", "coordinates": [ 112.966373220564051, 23.134163828203725 ] } },
{ "type": "Feature", "properties": { "station_num": "27", "line_name": "地铁4号线一期(港口路--北江大道)", "station_name": "新城医院", "status": "建设中" }, "geometry": { "type": "Point", "coordinates": [ 112.956797705353878, 23.136956528611908 ] } },
{ "type": "Feature", "properties": { "station_num": "28", "line_name": "地铁4号线一期(港口路--北江大道)", "station_name": "莲子塘", "status": "建设中" }, "geometry": { "type": "Point", "coordinates": [ 112.935659486071643, 23.146911081302061 ] } },
{ "type": "Feature", "properties": { "station_num": "29", "line_name": "地铁4号线一期(港口路--北江大道)", "station_name": "东交公园", "status": "建设中" }, "geometry": { "type": "Point", "coordinates": [ 112.903195157457532, 23.154969694736426 ] } },
{ "type": "Feature", "properties": { "station_num": "30", "line_name": "地铁4号线一期(港口路--北江大道)", "station_name": "西南街道", "status": "建设中" }, "geometry": { "type": "Point", "coordinates": [ 112.891873144539574, 23.167425243393268 ] } },
{ "type": "Feature", "properties": { "station_num": "31", "line_name": "地铁4号线一期(港口路--北江大道)", "station_name": "三水医院", "status": "建设中" }, "geometry": { "type": "Point", "coordinates": [ 112.87549185267639, 23.174405579296302 ] } },
{ "type": "Feature", "properties": { "station_num": "32", "line_name": "地铁4号线一期(港口路--北江大道)", "station_name": "西青大道", "status": "建设中" }, "geometry": { "type": "Point", "coordinates": [ 112.8655805467492, 23.176110631143782 ] } },
{ "type": "Feature", "properties": { "station_num": "33", "line_name": "地铁4号线一期(港口路--北江大道)", "station_name": "北江大道", "status": "建设中" }, "geometry": { "type": "Point", "coordinates": [ 112.852941371993779, 23.176374063669627 ] } }
]
}
